[
  {
    "name": "Teusaquillo",
    "zoom": 13,
    "lat": 4.6383485,
    "lng": -74.0848274
  },
  {
    "name": "Usaquén",
    "zoom": 12,
    "lat": 4.7440457,
    "lng": -74.0289697
  },
  {
    "name": "Chapinero",
    "zoom": 12,
    "lat": 4.6483129,
    "lng": -74.0305415
  },
  {
    "name": "Santa Fe",
    "zoom": 12,
    "lat": 4.59131,
    "lng": -74.0404865
  },
  {
    "name": "San Cristóbal",
    "zoom": 12,
    "lat": 4.5486809,
    "lng": -74.0665281
  },
  {
    "name": "Usme",
    "zoom": 11,
    "lat": 4.4014531,
    "lng": -74.1458454
  },
  {
    "name": "Tunjuelito",
    "zoom": 13,
    "lat": 4.5662916,
    "lng": -74.1380218
  },
  {
    "name": "Bosa",
    "zoom": 12,
    "lat": 4.6111498,
    "lng": -74.1877015
  },
  {
    "name": "Kennedy",
    "zoom": 12,
    "lat": 4.6173359,
    "lng": -74.1517064
  },
  {
    "name": "Fontibón",
    "zoom": 12,
    "lat": 4.6667126,
    "lng": -74.1395115
  },
  {
    "name": "Suba",
    "zoom": 11,
    "lat": 4.7358759,
    "lng": -74.0799031
  }
]
